[{"business_status":"OPERATIONAL","geometry":{"location":{"lat":45.6505546,"lng":25.6025409},"viewport":{"northeast":{"lat":45.65195028029149,"lng":25.6039928802915},"southwest":{"lat":45.64925231970849,"lng":25.6012949197085}}},"icon":"https://maps.gstatic.com/mapfiles/place_api/icons/v1/png_71/lodging-71.png","icon_background_color":"#909CE1","icon_mask_base_uri":"https://maps.gstatic.com/mapfiles/place_api/icons/v2/hotel_pinlet","name":"City Center","opening_hours":{"open_now":true},"photos":["https://lh3.googleusercontent.com/places/AKR5kUjVKNyY2AHWrKmlZ7vgXYk5XXef559fNd2ymK6XEphfcilEL8uazwQXHz0_iYPTMnRlq7d16u5k9BZo3x4Beocz0EVYagPWag=s1600-w1600-h1600"],"place_id":"ChIJCxboe4Fbs0ARCfS9FlSryoI","plus_code":{"compound_code":"MJ23+62 Brașov, Romania","global_code":"8GQ7MJ23+62"},"rating":3.7,"reference":"ChIJCxboe4Fbs0ARCfS9FlSryoI","scope":"GOOGLE","types":["lodging","restaurant","point_of_interest","food","establishment"],"user_ratings_total":335,"vicinity":"Strada Traian Grozăvescu 4, Brașov"},{"business_status":"OPERATIONAL","geometry":{"location":{"lat":45.6487255,"lng":25.6039502},"viewport":{"northeast":{"lat":45.6501166802915,"lng":25.6054738802915},"southwest":{"lat":45.6474187197085,"lng":25.6027759197085}}},"icon":"https://maps.gstatic.com/mapfiles/place_api/icons/v1/png_71/lodging-71.png","icon_background_color":"#909CE1","icon_mask_base_uri":"https://maps.gstatic.com/mapfiles/place_api/icons/v2/hotel_pinlet","name":"Residence Ambient","opening_hours":{"open_now":true},"photos":["https://lh3.googleusercontent.com/places/AKR5kUhZh2nqHAd0dXDVzqLlKm9WWAFx4xWUmM6RDJojUn8f1vj5wzsnEL3tx6Ebdg__HCL4vdPz32uwYbHVO6BQrVSxTVCfGfySkw=s1600-w1000-h667"],"place_id":"ChIJiZp-s4Fbs0ARN9EPoGsfhCc","plus_code":{"compound_code":"JJX3+FH Brașov, Romania","global_code":"8GQ7JJX3+FH"},"rating":3.9,"reference":"ChIJiZp-s4Fbs0ARN9EPoGsfhCc","scope":"GOOGLE","types":["lodging","point_of_interest","establishment"],"user_ratings_total":500,"vicinity":"Strada Castanilor 3, Brașov"},{"business_status":"OPERATIONAL","geometry":{"location":{"lat":45.6502136,"lng":25.6052222},"viewport":{"northeast":{"lat":45.6516433302915,"lng":25.6065374802915},"southwest":{"lat":45.6489453697085,"lng":25.6038395197085}}},"icon":"https://maps.gstatic.com/mapfiles/place_api/icons/v1/png_71/lodging-71.png","icon_background_color":"#909CE1","icon_mask_base_uri":"https://maps.gstatic.com/mapfiles/place_api/icons/v2/hotel_pinlet","name":"Pensiune Ambient","opening_hours":{"open_now":true},"photos":["https://lh3.googleusercontent.com/places/AKR5kUgXA7BHAZkCrxbDCQOfM_Cx9jhaphwq2f9sxhzu5mOKOQALLKUDy4BjJ1GmUhZjfKzrxuq1YcR4ni9e9rfPVlGafjusHjcP=s1600-w1000-h1000"],"place_id":"ChIJo6eiG4Fbs0AR9Urv-Pd9GgQ","plus_code":{"compound_code":"MJ24+33 Brașov, Romania","global_code":"8GQ7MJ24+33"},"rating":4.1,"reference":"ChIJo6eiG4Fbs0AR9Urv-Pd9GgQ","scope":"GOOGLE","types":["lodging","point_of_interest","establishment"],"user_ratings_total":475,"vicinity":"Strada Iuliu Maniu 62, Brașov"},{"business_status":"OPERATIONAL","geometry":{"location":{"lat":45.6517921,"lng":25.6069851},"viewport":{"northeast":{"lat":45.6531012302915,"lng":25.60834893029151},"southwest":{"lat":45.65040326970851,"lng":25.6056509697085}}},"icon":"https://maps.gstatic.com/mapfiles/place_api/icons/v1/png_71/lodging-71.png","icon_background_color":"#909CE1","icon_mask_base_uri":"https://maps.gstatic.com/mapfiles/place_api/icons/v2/hotel_pinlet","name":"4Cardinal's","opening_hours":{"open_now":true},"photos":["https://lh3.googleusercontent.com/places/AKR5kUjJ8RRu2RmOrBTZLWVUi9K5VcFh-mZcINZ-JGcvxblfDoJhcTIvpiM8u0kmlTMt5rBJgzM3q7FEqU-3bNazm4sEzMvDObXA_Q=s1600-w1600-h1600"],"place_id":"ChIJW6DL1YZbs0ARgQLtS6gmAAM","plus_code":{"compound_code":"MJ24+PQ Brașov, Romania","global_code":"8GQ7MJ24+PQ"},"rating":4.8,"reference":"ChIJW6DL1YZbs0ARgQLtS6gmAAM","scope":"GOOGLE","types":["lodging","point_of_interest","establishment"],"user_ratings_total":256,"vicinity":"Strada Gheorghe Lazăr 19, Brașov"},{"business_status":"OPERATIONAL","geometry":{"location":{"lat":45.65119929999999,"lng":25.6032466},"viewport":{"northeast":{"lat":45.65252248029149,"lng":25.6045307302915},"southwest":{"lat":45.64982451970849,"lng":25.6018327697085}}},"icon":"https://maps.gstatic.com/mapfiles/place_api/icons/v1/png_71/lodging-71.png","icon_background_color":"#909CE1","icon_mask_base_uri":"https://maps.gstatic.com/mapfiles/place_api/icons/v2/hotel_pinlet","name":"Flori de Iulie Aparthotel","opening_hours":{"open_now":true},"photos":["https://lh3.googleusercontent.com/places/AKR5kUg_H8kt7W3o9frMcUtj5dfsNieCSSJXgeE7HeXRLVSyZg0Mt0RdFMUhVMramF_8ZB976IQtk27KiAuuG3RXj6e_IIiXVc5kww=s1600-w1600-h1600"],"place_id":"ChIJO-a1a0xbs0ARaSnlvh8suIE","plus_code":{"compound_code":"MJ23+F7 Brașov, Romania","global_code":"8GQ7MJ23+F7"},"rating":4.9,"reference":"ChIJO-a1a0xbs0ARaSnlvh8suIE","scope":"GOOGLE","types":["lodging","point_of_interest","establishment"],"user_ratings_total":62,"vicinity":"Strada Mihai Viteazul 6, Brașov"},{"business_status":"OPERATIONAL","geometry":{"location":{"lat":45.6511111,"lng":25.60333829999999},"viewport":{"northeast":{"lat":45.6524312802915,"lng":25.6046149302915},"southwest":{"lat":45.6497333197085,"lng":25.60191696970849}}},"icon":"https://maps.gstatic.com/mapfiles/place_api/icons/v1/png_71/lodging-71.png","icon_background_color":"#909CE1","icon_mask_base_uri":"https://maps.gstatic.com/mapfiles/place_api/icons/v2/hotel_pinlet","name":"The Wolf Residence","opening_hours":{"open_now":true},"photos":["https://lh3.googleusercontent.com/places/AKR5kUh_KZbWXOzMp9FQM6CtguAtXYvPaseLuMxRsg4KcAKrcuXmvdPKuHG9dUx42Z3gYetP_E5oFziT7uoJRbLK7GEhxUvXodHjCg=s1600-w1600-h1600"],"place_id":"ChIJQ-4ZloNbs0ARV5fXD1-8N8Y","plus_code":{"compound_code":"MJ23+C8 Brașov, Romania","global_code":"8GQ7MJ23+C8"},"rating":5,"reference":"ChIJQ-4ZloNbs0ARV5fXD1-8N8Y","scope":"GOOGLE","types":["lodging","point_of_interest","establishment"],"user_ratings_total":25,"vicinity":"Str. Mihai Viteazul, Nr. 6, Ap. 5 (Bloc Cosmopolit, Brașov"},{"business_status":"OPERATIONAL","geometry":{"location":{"lat":45.65139409999999,"lng":25.6032564},"viewport":{"northeast":{"lat":45.6526919802915,"lng":25.60447693029151},"southwest":{"lat":45.6499940197085,"lng":25.6017789697085}}},"icon":"https://maps.gstatic.com/mapfiles/place_api/icons/v1/png_71/lodging-71.png","icon_background_color":"#909CE1","icon_mask_base_uri":"https://maps.gstatic.com/mapfiles/place_api/icons/v2/hotel_pinlet","name":"Cosmopolit Booking","photos":["https://lh3.googleusercontent.com/places/AKR5kUj-QJY607L9AlX4qsvMNksZe8BHJOmyPB5pK1tIVf1lVIhkO4qthZqtyjVy9iSjbeifPAOLUwMY4k5k_gorV3kAMqW4KaP7Gw=s1600-w1365-h1365"],"place_id":"ChIJ4bf36ktbs0ARmZsm8G_xNGU","plus_code":{"compound_code":"MJ23+H8 Brașov, Romania","global_code":"8GQ7MJ23+H8"},"rating":5,"reference":"ChIJ4bf36ktbs0ARmZsm8G_xNGU","scope":"GOOGLE","types":["lodging","point_of_interest","establishment"],"user_ratings_total":2,"vicinity":"Strada Mihai Viteazul 6, Brașov"},{"business_status":"OPERATIONAL","geometry":{"location":{"lat":45.6518215,"lng":25.6032085},"viewport":{"northeast":{"lat":45.6531475802915,"lng":25.60456583029151},"southwest":{"lat":45.6504496197085,"lng":25.6018678697085}}},"icon":"https://maps.gstatic.com/mapfiles/place_api/icons/v1/png_71/lodging-71.png","icon_background_color":"#909CE1","icon_mask_base_uri":"https://maps.gstatic.com/mapfiles/place_api/icons/v2/hotel_pinlet","name":"Dimitrie Cantemir Residence","opening_hours":{"open_now":false},"photos":["https://lh3.googleusercontent.com/places/AKR5kUgIzkUVDRJMO7XAzeb7id5wyO8Q_3a7XI-WtyN-RvLg4xiS8lYNxIhQMIsRfk1J6McXI4mWlW5CKUgoPPwZ-DeNebjKWMiB=s1600-w1600-h1600"],"place_id":"ChIJdbfXZMhbs0ARJrxz_1-a1RI","plus_code":{"compound_code":"MJ23+P7 Brașov, Romania","global_code":"8GQ7MJ23+P7"},"rating":4.9,"reference":"ChIJdbfXZMhbs0ARJrxz_1-a1RI","scope":"GOOGLE","types":["lodging","point_of_interest","establishment"],"user_ratings_total":9,"vicinity":"Strada Dimitrie Cantemir 7, Brașov"},{"business_status":"OPERATIONAL","geometry":{"location":{"lat":45.65127509999999,"lng":25.6021279},"viewport":{"northeast":{"lat":45.6526342302915,"lng":25.6035014302915},"southwest":{"lat":45.6499362697085,"lng":25.60080346970849}}},"icon":"https://maps.gstatic.com/mapfiles/place_api/icons/v1/png_71/lodging-71.png","icon_background_color":"#909CE1","icon_mask_base_uri":"https://maps.gstatic.com/mapfiles/place_api/icons/v2/hotel_pinlet","name":"Poiana Ski Residence","place_id":"ChIJ5a0QY4Fbs0ARJye6pMKnepI","plus_code":{"compound_code":"MJ22+GV Brașov, Romania","global_code":"8GQ7MJ22+GV"},"reference":"ChIJ5a0QY4Fbs0ARJye6pMKnepI","scope":"GOOGLE","types":["lodging","point_of_interest","establishment"],"vicinity":"Strada Traian Grozăvescu, Brașov"},{"business_status":"OPERATIONAL","geometry":{"location":{"lat":45.6511201,"lng":25.6015265},"viewport":{"northeast":{"lat":45.6525827802915,"lng":25.6031908802915},"southwest":{"lat":45.6498848197085,"lng":25.6004929197085}}},"icon":"https://maps.gstatic.com/mapfiles/place_api/icons/v1/png_71/lodging-71.png","icon_background_color":"#909CE1","icon_mask_base_uri":"https://maps.gstatic.com/mapfiles/place_api/icons/v2/hotel_pinlet","name":"NEST by Jules Studio","photos":["https://lh3.googleusercontent.com/places/AKR5kUgamN0BtKrpXcosfHU3Z8dcD7EtHlzWszbyMXVtVJOo9ti7TjYlsmAORELwTVOZeqYKF8TQzJDh8edbFof1iPmKsbozAO3peg=s1600-w1600-h1080"],"place_id":"ChIJC_tEkI9bs0ARrAhGDbDdJcE","plus_code":{"compound_code":"MJ22+CJ Brașov, Romania","global_code":"8GQ7MJ22+CJ"},"reference":"ChIJC_tEkI9bs0ARrAhGDbDdJcE","scope":"GOOGLE","types":["lodging","point_of_interest","establishment"],"vicinity":"Cosmopolit, Strada Traian Grozăvescu 7, Brașov"},{"business_status":"OPERATIONAL","geometry":{"location":{"lat":45.652195,"lng":25.6062012},"viewport":{"northeast":{"lat":45.65355398029151,"lng":25.60751538029151},"southwest":{"lat":45.65085601970851,"lng":25.6048174197085}}},"icon":"https://maps.gstatic.com/mapfiles/place_api/icons/v1/png_71/lodging-71.png","icon_background_color":"#909CE1","icon_mask_base_uri":"https://maps.gstatic.com/mapfiles/place_api/icons/v2/hotel_pinlet","name":"Casa Samurai","photos":["https://lh3.googleusercontent.com/places/AKR5kUhQbehUhMCCnej4bZNvjgH4tWMbPTrzToiA4By_h0-k8Yo6wJjmLg_2YiH-HyuRLWb2OB9QzL02oL5x7vqsMwdMxHws7Qsk9A=s1600-w1600-h1600"],"place_id":"ChIJpf7VcsZbs0ARnBZKR3D24XM","plus_code":{"compound_code":"MJ24+VF Brașov, Romania","global_code":"8GQ7MJ24+VF"},"rating":4.2,"reference":"ChIJpf7VcsZbs0ARnBZKR3D24XM","scope":"GOOGLE","types":["lodging","point_of_interest","establishment"],"user_ratings_total":529,"vicinity":"Strada Petru Maior 12A, Brașov"},{"business_status":"OPERATIONAL","geometry":{"location":{"lat":45.6525974,"lng":25.60480859999999},"viewport":{"northeast":{"lat":45.6539550802915,"lng":25.6061047802915},"southwest":{"lat":45.6512571197085,"lng":25.60340681970849}}},"icon":"https://maps.gstatic.com/mapfiles/place_api/icons/v1/png_71/lodging-71.png","icon_background_color":"#909CE1","icon_mask_base_uri":"https://maps.gstatic.com/mapfiles/place_api/icons/v2/hotel_pinlet","name":"Casa Beijing Brasov","opening_hours":{"open_now":true},"photos":["https://lh3.googleusercontent.com/places/AKR5kUgaqHLptxuxix0-2GdMUFIjTOnUH0gStijCAdibEm04jKazCTovqt62RAh08LD19DZnIJVWeoJkjZFcWLlwMd4UFhkBySzwTQ=s1600-w1242-h1600"],"place_id":"ChIJz25z_K5bs0ARXp-N-KVhiRo","plus_code":{"compound_code":"MJ33+2W Brașov, Romania","global_code":"8GQ7MJ33+2W"},"rating":3.5,"reference":"ChIJz25z_K5bs0ARXp-N-KVhiRo","scope":"GOOGLE","types":["lodging","point_of_interest","establishment"],"user_ratings_total":36,"vicinity":"Strada 13 Decembrie 18, Brașov"},{"business_status":"CLOSED_TEMPORARILY","geometry":{"location":{"lat":45.6529815,"lng":25.6034421},"viewport":{"northeast":{"lat":45.65441593029151,"lng":25.6049042302915},"southwest":{"lat":45.65171796970851,"lng":25.6022062697085}}},"icon":"https://maps.gstatic.com/mapfiles/place_api/icons/v1/png_71/lodging-71.png","icon_background_color":"#909CE1","icon_mask_base_uri":"https://maps.gstatic.com/mapfiles/place_api/icons/v2/hotel_pinlet","name":"Apartament Onix","permanently_closed":true,"photos":["https://lh3.googleusercontent.com/places/AKR5kUg0bS89XUidk_7S-NCDJy6NePppk_N-yoCPY-c-R41xQVYR-GeKAr43vEgMBfR_C8jU1b4NmJchGOLyR5F6aTQIiBogYstVUA=s1600-w1600-h1600"],"place_id":"ChIJAQBQBYRbs0ARlOqVdvhgcN8","plus_code":{"compound_code":"MJ33+59 Brașov, Romania","global_code":"8GQ7MJ33+59"},"rating":4.8,"reference":"ChIJAQBQBYRbs0ARlOqVdvhgcN8","scope":"GOOGLE","types":["lodging","point_of_interest","establishment"],"user_ratings_total":16,"vicinity":"Nr. 500198, Bulevardul Griviței 68, Brașov"},{"business_status":"CLOSED_TEMPORARILY","geometry":{"location":{"lat":45.6527352,"lng":25.60489889999999},"viewport":{"northeast":{"lat":45.6540981302915,"lng":25.6061756802915},"southwest":{"lat":45.6514001697085,"lng":25.60347771970849}}},"icon":"https://maps.gstatic.com/mapfiles/place_api/icons/v1/png_71/lodging-71.png","icon_background_color":"#909CE1","icon_mask_base_uri":"https://maps.gstatic.com/mapfiles/place_api/icons/v2/hotel_pinlet","name":"Privilegio Residence","permanently_closed":true,"place_id":"ChIJ-5M3cUtbs0ARvqH3um22OHA","plus_code":{"compound_code":"MJ33+3X Brașov, Romania","global_code":"8GQ7MJ33+3X"},"reference":"ChIJ-5M3cUtbs0ARvqH3um22OHA","scope":"GOOGLE","types":["lodging","point_of_interest","establishment"],"vicinity":"Strada 13 Decembrie 20, Brașov"},{"business_status":"OPERATIONAL","geometry":{"location":{"lat":45.650696,"lng":25.60049699999999},"viewport":{"northeast":{"lat":45.65205453029149,"lng":25.6018677302915},"southwest":{"lat":45.64935656970849,"lng":25.5991697697085}}},"icon":"https://maps.gstatic.com/mapfiles/place_api/icons/v1/png_71/lodging-71.png","icon_background_color":"#909CE1","icon_mask_base_uri":"https://maps.gstatic.com/mapfiles/place_api/icons/v2/hotel_pinlet","name":"DALI Apartment","photos":["https://lh3.googleusercontent.com/places/AKR5kUhjjsVLZAllFeIcHvX1-U-a7w3U07fR8PMppvkI4sOQM0EbKA4nfSGnngicYXEIaatOdSo17_3Wt31aCcg7Z908aTBYbWBuEA=s1600-w1600-h1600"],"place_id":"ChIJHx-8I-xbs0ARMPgCHvcTsXA","plus_code":{"compound_code":"MJ22+75 Brașov, Romania","global_code":"8GQ7MJ22+75"},"rating":5,"reference":"ChIJHx-8I-xbs0ARMPgCHvcTsXA","scope":"GOOGLE","types":["lodging","point_of_interest","establishment"],"user_ratings_total":5,"vicinity":"Strada Doctor Ion Cantacuzino nr. 15, Brașov"}]